{
"type": "FeatureCollection",
"name": "mapchallenge_data",
"crs": { "type": "name", "properties": { "name": "urn:ogc:def:crs:OGC:1.3:CRS84" } },
"features": [
{ "type": "Feature", "properties": { "day": 1, "theme": "Points", "place": "Yangon", "alt_place": "Rangoun,Rangoon,Yangoon", "sub_place": "Myanmar,Birmanie", "question": "Name the city this place in.", "place_comment": null, "lat": 16.798344868883749, "lon": 96.149602471799895 }, "geometry": { "type": "Point", "coordinates": [ 96.149602471799895, 16.798344868883749 ] } },
{ "type": "Feature", "properties": { "day": 2, "theme": "Lines", "place": "Everest", "alt_place": "Qomolangma", "sub_place": "Himalaya,Nepal,Tibet", "question": "Name this mountain.", "place_comment": "The top of the world!", "lat": 27.988163748071802, "lon": 86.925096219434877 }, "geometry": { "type": "Point", "coordinates": [ 86.925096219434877, 27.988163748071802 ] } },
{ "type": "Feature", "properties": { "day": 3, "theme": "Polygons", "place": "Forbidden city", "alt_place": "The forbidden city, La cité interdite", "sub_place": "Beijing,Pékin,China", "question": "Name this place.", "place_comment": null, "lat": 39.916786627819071, "lon": 116.39074443914822 }, "geometry": { "type": "Point", "coordinates": [ 116.390744439148222, 39.916786627819071 ] } },
{ "type": "Feature", "properties": { "day": 4, "theme": "A bad map", "place": "Istanbul", "alt_place": "Bosphore", "sub_place": "Turkey", "question": "Name this city or area.", "place_comment": null, "lat": 41.015991347946276, "lon": 28.981954669440391 }, "geometry": { "type": "Point", "coordinates": [ 28.981954669440391, 41.015991347946276 ] } },
{ "type": "Feature", "properties": { "day": 5, "theme": "Analog", "place": "New Zealand", "alt_place": "Australia,Australie,Nouvelle Zélande", "sub_place": null, "question": "Name this country.", "place_comment": null, "lat": -44.429487619583796, "lon": 170.34447936091715 }, "geometry": { "type": "Point", "coordinates": [ 170.344479360917148, -44.429487619583796 ] } },
{ "type": "Feature", "properties": { "day": 6, "theme": "Asia", "place": "Battambang", "alt_place": null, "sub_place": "Cambodia", "question": "Name this city.", "place_comment": null, "lat": 13.098076185629346, "lon": 103.1947547839784 }, "geometry": { "type": "Point", "coordinates": [ 103.194754783978397, 13.098076185629346 ] } },
{ "type": "Feature", "properties": { "day": 7, "theme": "Navigation", "place": "Venezia", "alt_place": "Venise", "sub_place": "Italia,Italie,Italy", "question": "Name this city.", "place_comment": null, "lat": 45.438328651722074, "lon": 12.330194572028924 }, "geometry": { "type": "Point", "coordinates": [ 12.330194572028924, 45.438328651722074 ] } },
{ "type": "Feature", "properties": { "day": 8, "theme": "Africa", "place": "Okavango", "alt_place": "", "sub_place": "Botswana", "question": "Name this remarkable river.", "place_comment": null, "lat": -19.889907340372371, "lon": 23.434571603635739 }, "geometry": { "type": "Point", "coordinates": [ 23.434571603635739, -19.889907340372371 ] } },
{ "type": "Feature", "properties": { "day": 9, "theme": "Hexagons", "place": "Grammichele", "alt_place": "Gramichele", "sub_place": "Sicilia", "question": "Name this city.", "place_comment": null, "lat": 37.214732731297111, "lon": 14.63662908474973 }, "geometry": { "type": "Point", "coordinates": [ 14.63662908474973, 37.214732731297111 ] } },
{ "type": "Feature", "properties": { "day": 10, "theme": "North America", "place": "Vancouver", "alt_place": null, "sub_place": null, "question": "Name this city.", "place_comment": null, "lat": 49.245388347016601, "lon": -123.10308032262732 }, "geometry": { "type": "Point", "coordinates": [ -123.103080322627321, 49.245388347016601 ] } },
{ "type": "Feature", "properties": { "day": 11, "theme": "Retro", "place": "Paris, 1859", "alt_place": null, "sub_place": null, "question": "Guess the year when Paris absorbed surrounding towns.", "place_comment": null, "lat": 48.858760937135479, "lon": 2.3453486948130911 }, "geometry": { "type": "Point", "coordinates": [ 2.345348694813091, 48.858760937135479 ] } },
{ "type": "Feature", "properties": { "day": 12, "theme": "South America", "place": "Ushuaia", "alt_place": "Ushuaïa", "sub_place": "Terra del Fuego", "question": "Name this city.", "place_comment": "The End of the World!", "lat": -54.807961933355642, "lon": -68.310261627183394 }, "geometry": { "type": "Point", "coordinates": [ -68.310261627183394, -54.807961933355642 ] } },
{ "type": "Feature", "properties": { "day": 13, "theme": "Choropleth", "place": "Svalbard", "alt_place": null, "sub_place": "Norway", "question": "Name this area hosting many polar bears.", "place_comment": "Digits shows the number of polar bear dens per square of 10km.", "lat": 78.621359540646111, "lon": 16.986478645636737 }, "geometry": { "type": "Point", "coordinates": [ 16.986478645636737, 78.621359540646111 ] } },
{ "type": "Feature", "properties": { "day": 14, "theme": "Europe", "place": "Kirkjufell", "alt_place": "Grundarfjörður,Grundarfjördur,Grundarfjordur", "sub_place": "Iceland,Snaefellsness", "question": "Name this mountain.  Surrounding town is also allowed.", "place_comment": null, "lat": 64.940283738924734, "lon": -23.306409504646783 }, "geometry": { "type": "Point", "coordinates": [ -23.306409504646783, 64.940283738924734 ] } },
{ "type": "Feature", "properties": { "day": 15, "theme": "Openstreetmap", "place": "Sarajevo", "alt_place": null, "sub_place": "Bosnia,Bosnia Herzegovina", "question": "Name this city.", "place_comment": null, "lat": 43.849561914372167, "lon": 18.389751217764509 }, "geometry": { "type": "Point", "coordinates": [ 18.389751217764509, 43.849561914372167 ] } },
{ "type": "Feature", "properties": { "day": 16, "theme": "Oceania", "place": "Palaos", "alt_place": "Palau", "sub_place": null, "question": "Name this country.", "place_comment": null, "lat": 7.3273296188340939, "lon": 134.47385430807176 }, "geometry": { "type": "Point", "coordinates": [ 134.473854308071765, 7.327329618834094 ] } },
{ "type": "Feature", "properties": { "day": 17, "theme": "Flow", "place": "Shanghai", "alt_place": null, "sub_place": "China", "question": "Name the city of this subway network.", "place_comment": null, "lat": 31.241914198707732, "lon": 121.4952772458566 }, "geometry": { "type": "Point", "coordinates": [ 121.495277245856599, 31.241914198707732 ] } },
{ "type": "Feature", "properties": { "day": 18, "theme": "Atmosphere", "place": "Male", "alt_place": "Malé", "sub_place": "Maldives", "question": "Name this city.", "place_comment": null, "lat": 4.1748790202043713, "lon": 73.509863386541781 }, "geometry": { "type": "Point", "coordinates": [ 73.509863386541781, 4.174879020204371 ] } },
{ "type": "Feature", "properties": { "day": 19, "theme": "5 minutes map", "place": "Olague", "alt_place": "Nigeria", "sub_place": null, "question": "Name this place.", "place_comment": "5.55555E,5.55555N!", "lat": 5.55555, "lon": 5.55555 }, "geometry": { "type": "Point", "coordinates": [ 5.55555, 5.55555 ] } },
{ "type": "Feature", "properties": { "day": 20, "theme": "Outdoor", "place": "Son Kol", "alt_place": "Son Kol Lake, Sonkul Lake, Sonkul,Sonkol,Son Kul Lake", "sub_place": "Kyrgyzstan,Kirghizstan", "question": "Name this lake.", "place_comment": null, "lat": 41.839593460604931, "lon": 75.151971919000658 }, "geometry": { "type": "Point", "coordinates": [ 75.151971919000658, 41.839593460604931 ] } },
{ "type": "Feature", "properties": { "day": 21, "theme": "Raster", "place": "Genghis Khaan Statue Complex", "alt_place": "Ginghis Khaan Statue,Genghis Khan Statue,Ginghis Khan Statue", "sub_place": "Mongolia,Mongolie", "question": "Name this place.", "place_comment": null, "lat": 47.808125132594043, "lon": 107.52984405532465 }, "geometry": { "type": "Point", "coordinates": [ 107.529844055324645, 47.808125132594043 ] } },
{ "type": "Feature", "properties": { "day": 22, "theme": "North is not always up", "place": "Sierra Leone", "alt_place": null, "sub_place": null, "question": "Name this country.", "place_comment": "Sierra Leone is one of the most rounded country", "lat": 8.4451928273639183, "lon": -11.862961023705575 }, "geometry": { "type": "Point", "coordinates": [ -11.862961023705575, 8.445192827363918 ] } },
{ "type": "Feature", "properties": { "day": 23, "theme": "3D", "place": "Torres del Paine", "alt_place": null, "sub_place": "Chile", "question": "Name this place.", "place_comment": null, "lat": -51.002930387500157, "lon": -73.097277530417813 }, "geometry": { "type": "Point", "coordinates": [ -73.097277530417813, -51.002930387500157 ] } },
{ "type": "Feature", "properties": { "day": 24, "theme": "Black and White", "place": "Monza", "alt_place": null, "sub_place": null, "question": "Name this place.", "place_comment": null, "lat": 45.619071482852057, "lon": 9.2844144011088972 }, "geometry": { "type": "Point", "coordinates": [ 9.284414401108897, 45.619071482852057 ] } },
{ "type": "Feature", "properties": { "day": 25, "theme": "Antarctica", "place": "Ljubljana", "alt_place": null, "sub_place": null, "question": "Northern cities has been moved to the ice continent.  Name the city which fall to the south pole.", "place_comment": null, "lat": -84.99, "lon": 0.0 }, "geometry": { "type": "Point", "coordinates": [ 0.0, -84.99 ] } },
{ "type": "Feature", "properties": { "day": 26, "theme": "Minimal", "place": "Pitcairn", "alt_place": null, "sub_place": null, "question": "Name this island.", "place_comment": "Pitcairn is the dependency having the less population.", "lat": -25.069239657736691, "lon": -130.1057730082693 }, "geometry": { "type": "Point", "coordinates": [ -130.105773008269296, -25.069239657736691 ] } },
{ "type": "Feature", "properties": { "day": 28, "theme": "Dot", "place": "Beaufort", "alt_place": "", "sub_place": null, "question": "Name the sea where 300 bears has been tracked here.", "place_comment": null, "lat": 71.359717219815906, "lon": -154.72448296439154 }, "geometry": { "type": "Point", "coordinates": [ -154.724482964391541, 71.359717219815906 ] } },
{ "type": "Feature", "properties": { "day": 28, "theme": "Is it a chart or map?", "place": "Japan", "alt_place": "Japon", "sub_place": null, "question": "Name the nation which represents this population chart.", "place_comment": null, "lat": 35.799629421892746, "lon": 140.06033188322755 }, "geometry": { "type": "Point", "coordinates": [ 140.060331883227548, 35.799629421892746 ] } },
{ "type": "Feature", "properties": { "day": 29, "theme": "Population", "place": "Kosovo", "alt_place": "Kosova,Kosovë", "sub_place": null, "question": "Name the nation which represents this population density.", "place_comment": null, "lat": 42.582800757542245, "lon": 20.749746766632846 }, "geometry": { "type": "Point", "coordinates": [ 20.749746766632846, 42.582800757542245 ] } },
{ "type": "Feature", "properties": { "day": 30, "theme": "\"My favorite...\"", "place": "Bissau", "alt_place": "Guinea-Bissau,Guinée-Bissau,Guinee Bissau", "sub_place": null, "question": "Name this beautiful place.", "place_comment": null, "lat": 11.721768706204037, "lon": -15.667745830439994 }, "geometry": { "type": "Point", "coordinates": [ -15.667745830439994, 11.721768706204037 ] } }
]
}
