[
  {
    "day": 1,
    "theme": "Points",
    "place": "Yangon",
    "accepted_places": "yangon,rangoun,rangoon,yangoon",
    "sub_place": "Myanmar,Birmanie",
    "question": "In which city this place full of pagodas is located?",
    "place_comment": "Shwedagon shrine, the most sacred Buddhist pagoda in Myanmar.",
    "lat": 16.7983448688837,
    "lon": 96.1496024717999,
    "zoom": 15,
    "photo_source": "© bordoray"
  },
  {
    "day": 2,
    "theme": "Lines",
    "place": "the Mount Everest",
    "accepted_places": "qomolangma,everest,mt. everest,mt.everest,mt everest,mont everest, mount everest",
    "sub_place": "Himalaya,Nepal,Tibet",
    "question": "Name the peak at the center of this map.",
    "place_comment": "The roof of the world!",
    "lat": 27.9881637480718,
    "lon": 86.9250962194349,
    "zoom": 13,
    "photo_source": "© bordoray"
  },
  {
    "day": 3,
    "theme": "Polygons",
    "place": "the Forbidden City",
    "accepted_places": "the forbidden city,la cité interdite,forbidden city",
    "sub_place": "Beijing,Pékin,China",
    "question": "Guess this place full of polygons.",
    "place_comment": "Let's Get Lost.",
    "lat": 39.9167866278191,
    "lon": 116.390744439148,
    "zoom": 14,
    "photo_source": "© bordoray"
  },
  {
    "day": 4,
    "theme": "A bad map",
    "place": "Istanbul",
    "accepted_places": "istanbul",
    "sub_place": "Turkey",
    "question": "Guess the city of this weird coloured map.",
    "place_comment": "The unique city covering two continents.",
    "lat": 41.0159913479463,
    "lon": 28.9819546694404,
    "zoom": 9,
    "photo_source": "© bordoray"
  },
  {
    "day": 5,
    "theme": "Analog",
    "place": "New Zealand",
    "accepted_places": "new zealand,nouvelle zélande",
    "sub_place": "",
    "question": "Name the country at the bottom right of this globe clay.",
    "place_comment": "Never forget to place it.",
    "lat": -44.4294876195838,
    "lon": 170.344479360917,
    "zoom": 4,
    "photo_source": "© bordoray"
  },
  {
    "day": 6,
    "theme": "Asia",
    "place": "Tonlé sap, Cambodia",
    "accepted_places": "tonle sap,tonlé sap,tonlésap lake,tonlé sap lake,tonlesap lake,tonle sap lake,tonlésap,tonlesap",
    "sub_place": "Cambodia",
    "question": "Guess this lake.",
    "place_comment": "The land of my Khmer roots.",
    "lat": 12.7317,
    "lon": 104.0493,
    "zoom": 8,
    "photo_source": "© bordoray"
  },
  {
    "day": 7,
    "theme": "Navigation",
    "place": "Venezia",
    "accepted_places": "venezia,venice,venise,venesia,venexia",
    "sub_place": "Italia,Italie,Italy",
    "question": "Guess this town.",
    "place_comment": "“Paris is an ideal place to become informed, while Venice is a place to think and write” - Pontus Hulten",
    "lat": 45.4383286517221,
    "lon": 12.3301945720289,
    "zoom": 13,
    "photo_source": "© T.Pesquet ESA/NASA"
  },
  {
    "day": 8,
    "theme": "Africa",
    "place": "Okavango delta in Botswana",
    "accepted_places": "okavango,okawango,cubango,kubango,okovango,okovanggo,okavango delta,okawango delta,cubango delta,kubango delta,okovango delta,okovanggo delta,okavango river,okawango river,cubango river,kubango river,okovango river,okovanggo river",
    "sub_place": "Botswana",
    "question": "Guess this natural wonder.",
    "place_comment": "This river does not end to the sea but there.",
    "lat": -19.8899073403724,
    "lon": 23.4345716036357,
    "zoom": 10,
    "photo_source": "© T.Pesquet ESA/NASA"
  },
  {
    "day": 9,
    "theme": "Hexagons",
    "place": "Grammichele",
    "accepted_places": "grammichele",
    "sub_place": "Sicilia",
    "question": "Guess this town.",
    "place_comment": "A well layout built town in Sicily.",
    "lat": 37.2147327312971,
    "lon": 14.6366290847497,
    "zoom": 15,
    "photo_source": "© Maptiler Satellite"
  },
  {
    "day": 10,
    "theme": "North America",
    "place": "Boulder, Colorado",
    "accepted_places": "boulder",
    "sub_place": "",
    "question": "Guess this city.",
    "place_comment": "Where Rocky Mountains starts.",
    "lat": 40.017,
    "lon": -105.28,
    "zoom": 7.5,
    "photo_source": "© bordoray"
  },
  {
    "day": 11,
    "theme": "Retro",
    "place": "1860",
    "accepted_places": "1860",
    "sub_place": "",
    "question": "Guess the year when Paris absorbed surrounding towns.",
    "place_comment": "On January 1st, beautiful towns like Montmartre became a small district of Paris.",
    "lat": 48.8587609371355,
    "lon": 2.34534869481309,
    "zoom": 10,
    "photo_source": "© bordoray"
  },
  {
    "day": 12,
    "theme": "South America",
    "place": "Ushuaia",
    "accepted_places": "ushuaia,ushuaïa",
    "sub_place": "Terra del Fuego",
    "question": "Guess this city.",
    "place_comment": "The End of the World!",
    "lat": -54.8079619333556,
    "lon": -68.3102616271834,
    "zoom": 9,
    "photo_source": "© bordoray"
  },
  {
    "day": 13,
    "theme": "Choropleth",
    "place": "Svalbard",
    "accepted_places": "svalbard",
    "sub_place": "Norway",
    "question": "Name this area hosting many polar bears.",
    "place_comment": "Digits shows the number of polar bear dens per square of 10km.",
    "lat": 78.6213595406461,
    "lon": 16.9864786456367,
    "zoom": 4,
    "photo_source": "Bjørn Christian Tørrissen"
  },
  {
    "day": 14,
    "theme": "Europe",
    "place": "Kirkjufell, Iceland",
    "accepted_places": "kirkjufell,grundarfjörður,grundarfjördur,grundarfjordur",
    "sub_place": "Iceland,Snaefellsness",
    "question": "Name this mountain. Surrounding town is also allowed.",
    "place_comment": "An iconic Icelandic mountain located in Snæfellsnes peninsula.",
    "lat": 64.9402837389247,
    "lon": -23.3064095046468,
    "zoom": 12,
    "photo_source": "© bordoray"
  },
  {
    "day": 15,
    "theme": "Openstreetmap",
    "place": "Sarajevo",
    "accepted_places": "sarajevo",
    "sub_place": "Bosnia,Bosnia Herzegovina",
    "question": "Name this city where people live together no matter religion.",
    "place_comment": "Where you can hear church bells and mosque calls.",
    "lat": 43.8495619143722,
    "lon": 18.3897512177645,
    "zoom": 12,
    "photo_source": "Unsplash"
  },
  {
    "day": 16,
    "theme": "Oceania",
    "place": "Palau",
    "accepted_places": "palaos,palau,belau,pelew",
    "sub_place": "",
    "question": "Name this country.",
    "place_comment": "The pristine islands",
    "lat": 7.32732961883409,
    "lon": 134.473854308072,
    "zoom": 9,
    "photo_source": "© Maptiler Satellite"
  },
  {
    "day": 17,
    "theme": "Flow",
    "place": "Shanghai",
    "accepted_places": "shanghai,shanghaï",
    "sub_place": "China",
    "question": "Name the city of this subway network.",
    "place_comment": "Network is growing so fast it may be already out of date.",
    "lat": 31.2419141987077,
    "lon": 121.495277245857,
    "zoom": 9,
    "photo_source": "© bordoray"
  },
  {
    "day": 18,
    "theme": "Atmosphere",
    "place": "Male",
    "accepted_places": "male,malé",
    "sub_place": "Maldives",
    "question": "Name this city threaten by the ocean rising.",
    "place_comment": "Time is counted to visit Maldives.",
    "lat": 4.17487902020437,
    "lon": 73.5098633865418,
    "zoom": 11,
    "photo_source": "© bordoray"
  },
  {
    "day": 19,
    "theme": "5 minutes map",
    "place": "Nigeria",
    "accepted_places": "nigeria",
    "sub_place": "",
    "question": "Name the country where this place is located. (Hint: read well the theme.)",
    "place_comment": "5.55555N, 5.55555E!",
    "lat": 5.55555,
    "lon": 5.55555,
    "zoom": 10,
    "photo_source": "© Maptiler Satellite"
  },
  {
    "day": 20,
    "theme": "Outdoor",
    "place": "Son Kol Lake",
    "accepted_places": "son kol lake,sonkul lake,sonkul,sonkol,son kul lake,sonkol lake,son kol,sonkol,sonkul,son kul",
    "sub_place": "Kyrgyzstan,Kirghizstan",
    "question": "Name this lake.",
    "place_comment": "The Kyrgyz pearl.",
    "lat": 41.8395934606049,
    "lon": 75.1519719190007,
    "zoom": 9,
    "photo_source": "© bordoray"
  },
  {
    "day": 21,
    "theme": "Raster",
    "place": "Ulaanbaatar",
    "accepted_places": "oulan-bator,ulaanbaatar,ulanbaatar,ulaanbatar,ulanbatar,ulanbataar,ulaanbataar,ulan bator,ulanbator,ulan-bator,ulaan baatar,ulan baatar,ulaan batar,ulan batar,ulan bataar,ulaan bataar,",
    "sub_place": "Mongolia,Mongolie",
    "question": "In which city is located this place?",
    "place_comment": "Ginghis Khaan Statue Complex in Ulaanbaatar country side.",
    "lat": 47.808125132594,
    "lon": 107.529844055325,
    "zoom": 15,
    "photo_source": "© bordoray"
  },
  {
    "day": 22,
    "theme": "North is not always up",
    "place": "Sierra Leone",
    "accepted_places": "sierra leone",
    "sub_place": "",
    "question": "Name this country.",
    "place_comment": "Sierra Leone is one of the most rounded country",
    "lat": 8.44519282736392,
    "lon": -11.8629610237056,
    "zoom": 7,
    "photo_source": "© T.Pesquet ESA/NASA"
  },
  {
    "day": 23,
    "theme": "3D",
    "place": "Torres del Paine",
    "accepted_places": "torres del paine",
    "sub_place": "Chile",
    "question": "Name this place.",
    "place_comment": "Patagonia mi amor",
    "lat": -51.0029303875002,
    "lon": -73.0972775304178,
    "zoom": 10,
    "photo_source": "© bordoray"
  },
  {
    "day": 24,
    "theme": "Black and White",
    "place": "Monza Circuit",
    "accepted_places": "monza,monza circuit,autodromo nazionale di monza",
    "sub_place": "",
    "question": "Name this place.",
    "place_comment": "The Temple of Speed.",
    "lat": 45.6190714828521,
    "lon": 9.2844144011089,
    "zoom": 13,
    "photo_source": "Unsplash"
  },
  {
    "day": 25,
    "theme": "Antarctica",
    "place": "Ljubljana",
    "accepted_places": "ljubljana,ljubjana,lubjana",
    "sub_place": "",
    "question": "Northern cities has been moved to the ice continent. Name the city which fall to the south pole.",
    "place_comment": "White dragons guards South Pole.",
    "lat": -80.99,
    "lon": 0,
    "zoom": 3,
    "photo_source": "© bordoray"
  },
  {
    "day": 26,
    "theme": "Minimal",
    "place": "Pitcairn",
    "accepted_places": "pitcairn",
    "sub_place": "",
    "question": "Name this island.",
    "place_comment": "Pitcairn is the dependency having the minimal population.",
    "lat": -25.0692396577367,
    "lon": -130.105773008269,
    "zoom": 13.5,
    "photo_source": "© Maptiler Satellite"
  },
  {
    "day": 27,
    "theme": "Dot",
    "place": "Beaufort Sea",
    "accepted_places": "beaufort,beaufort sea,sea of beaufort,mer de beaufort",
    "sub_place": "",
    "question": "Name the sea where polar bears has been tracked here.",
    "place_comment": "A track of up to 300 polar bears.",
    "lat": 71.3597172198159,
    "lon": -154.724482964392,
    "zoom": 4,
    "photo_source": "Unsplash"
  },
  {
    "day": 28,
    "theme": "Is it a chart or map?",
    "place": "Japan",
    "accepted_places": "japan,japon,日本",
    "sub_place": "",
    "question": "Name the nation which represents this population chart.",
    "place_comment": "A full of rising sun!",
    "lat": 35.7996294218927,
    "lon": 140.060331883228,
    "zoom": 4,
    "photo_source": "© bordoray"
  },
  {
    "day": 29,
    "theme": "Population",
    "place": "Kosova",
    "accepted_places": "kosova,kosovo,kosovë",
    "sub_place": "",
    "question": "Name the nation which represents this population density.",
    "place_comment": "A friendly nation who hosted FOSS4G 2023.",
    "lat": 42.5828007575422,
    "lon": 20.7497467666328,
    "zoom": 8,
    "photo_source": "© bordoray"
  },
  {
    "day": 30,
    "theme": "My favorite...",
    "place": "Bissau",
    "accepted_places": "bissau,guinea-bissau,guinea bissau,guinée-bissau,guinée bissau,guinee bissau,guinee-bissau",
    "sub_place": "",
    "question": "Name this beautiful place.",
    "place_comment": "The astronaut Thomas Pesquet took a pic from space which makes me fall in love to this area.",
    "lat": 11.721768706204,
    "lon": -15.66774583044,
    "zoom": 8.5,
    "photo_source": "© T.Pesquet ESA/NASA"
  }
]