[
  {
    "day": 1,
    "theme": "Points",
    "place": "Yangon",
    "alt_place": "Rangoun,Rangoon,Yangoon",
    "sub_place": "Myanmar,Birmanie",
    "question": "Name the city this place in.",
    "place_comment": "",
    "lat": 16.7983448688837,
    "lon": 96.1496024717999,
    "zoom": 15
  },
  {
    "day": 2,
    "theme": "Lines",
    "place": "Everest",
    "alt_place": "Qomolangma",
    "sub_place": "Himalaya,Nepal,Tibet",
    "question": "Name this mountain.",
    "place_comment": "The top of the world!",
    "lat": 27.9881637480718,
    "lon": 86.9250962194349,
    "zoom": 13
  },
  {
    "day": 3,
    "theme": "Polygons",
    "place": "Forbidden city",
    "alt_place": "The forbidden city, La cité interdite",
    "sub_place": "Beijing,Pékin,China",
    "question": "Name this place.",
    "place_comment": "",
    "lat": 39.9167866278191,
    "lon": 116.390744439148,
    "zoom": 14
  },
  {
    "day": 4,
    "theme": "A bad map",
    "place": "Istanbul",
    "alt_place": "Bosphore",
    "sub_place": "Turkey",
    "question": "Name this city or area.",
    "place_comment": "",
    "lat": 41.0159913479463,
    "lon": 28.9819546694404,
    "zoom": 9
  },
  {
    "day": 5,
    "theme": "Analog",
    "place": "New Zealand",
    "alt_place": "Nouvelle Zélande",
    "sub_place": "",
    "question": "Name the country at the bottom right of this globe clay.",
    "place_comment": "",
    "lat": -44.4294876195838,
    "lon": 170.344479360917,
    "zoom": 4.5
  },
  {
    "day": 6,
    "theme": "Asia",
    "place": "Battambang",
    "alt_place": "",
    "sub_place": "Cambodia",
    "question": "Name this city.",
    "place_comment": "",
    "lat": 13.0980761856293,
    "lon": 103.194754783978,
    "zoom": 11
  },
  {
    "day": 7,
    "theme": "Navigation",
    "place": "Venezia",
    "alt_place": "Venise",
    "sub_place": "Italia,Italie,Italy",
    "question": "Name this city.",
    "place_comment": "",
    "lat": 45.4383286517221,
    "lon": 12.3301945720289,
    "zoom": 13
  },
  {
    "day": 8,
    "theme": "Africa",
    "place": "Okavango",
    "alt_place": "",
    "sub_place": "Botswana",
    "question": "Name this remarkable river.",
    "place_comment": "",
    "lat": -19.8899073403724,
    "lon": 23.4345716036357,
    "zoom": 10
  },
  {
    "day": 9,
    "theme": "Hexagons",
    "place": "Grammichele",
    "alt_place": "Gramichele",
    "sub_place": "Sicilia",
    "question": "Name this city.",
    "place_comment": "",
    "lat": 37.2147327312971,
    "lon": 14.6366290847497,
    "zoom": 15
  },
  {
    "day": 10,
    "theme": "North America",
    "place": "Vancouver",
    "alt_place": "",
    "sub_place": "",
    "question": "Name this city.",
    "place_comment": "",
    "lat": 49.2453883470166,
    "lon": -123.103080322627,
    "zoom": 7.5
  },
  {
    "day": 11,
    "theme": "Retro",
    "place": "1860",
    "alt_place": "",
    "sub_place": "",
    "question": "Guess the year when Paris absorbed surrounding towns.",
    "place_comment": "",
    "lat": 48.8587609371355,
    "lon": 2.34534869481309,
    "zoom": 10
  },
  {
    "day": 12,
    "theme": "South America",
    "place": "Ushuaia",
    "alt_place": "Ushuaïa",
    "sub_place": "Terra del Fuego",
    "question": "Name this city.",
    "place_comment": "The End of the World!",
    "lat": -54.8079619333556,
    "lon": -68.3102616271834,
    "zoom": 9
  },
  {
    "day": 13,
    "theme": "Choropleth",
    "place": "Svalbard",
    "alt_place": "",
    "sub_place": "Norway",
    "question": "Name this area hosting many polar bears.",
    "place_comment": "Digits shows the number of polar bear dens per square of 10km.",
    "lat": 78.6213595406461,
    "lon": 16.9864786456367,
    "zoom": 4
  },
  {
    "day": 14,
    "theme": "Europe",
    "place": "Kirkjufell",
    "alt_place": "Grundarfjörður,Grundarfjördur,Grundarfjordur",
    "sub_place": "Iceland,Snaefellsness",
    "question": "Name this mountain.  Surrounding town is also allowed.",
    "place_comment": "",
    "lat": 64.9402837389247,
    "lon": -23.3064095046468,
    "zoom": 12
  },
  {
    "day": 15,
    "theme": "Openstreetmap",
    "place": "Sarajevo",
    "alt_place": "",
    "sub_place": "Bosnia,Bosnia Herzegovina",
    "question": "Name this city.",
    "place_comment": "",
    "lat": 43.8495619143722,
    "lon": 18.3897512177645,
    "zoom": 12
  },
  {
    "day": 16,
    "theme": "Oceania",
    "place": "Palaos",
    "alt_place": "Palau",
    "sub_place": "",
    "question": "Name this country.",
    "place_comment": "",
    "lat": 7.32732961883409,
    "lon": 134.473854308072,
    "zoom": 9
  },
  {
    "day": 17,
    "theme": "Flow",
    "place": "Shanghai",
    "alt_place": "",
    "sub_place": "China",
    "question": "Name the city of this subway network.",
    "place_comment": "",
    "lat": 31.2419141987077,
    "lon": 121.495277245857,
    "zoom": 9
  },
  {
    "day": 18,
    "theme": "Atmosphere",
    "place": "Male",
    "alt_place": "Malé",
    "sub_place": "Maldives",
    "question": "Name this city.",
    "place_comment": "",
    "lat": 4.17487902020437,
    "lon": 73.5098633865418,
    "zoom": 11
  },
  {
    "day": 19,
    "theme": "5 minutes map",
    "place": "Olague",
    "alt_place": "Nigeria",
    "sub_place": "",
    "question": "Name this place.",
    "place_comment": "5.55555E,5.55555N!",
    "lat": 5.55555,
    "lon": 5.55555,
    "zoom": 10
  },
  {
    "day": 20,
    "theme": "Outdoor",
    "place": "Son Kol",
    "alt_place": "Son Kol Lake, Sonkul Lake, Sonkul,Sonkol,Son Kul Lake",
    "sub_place": "Kyrgyzstan,Kirghizstan",
    "question": "Name this lake.",
    "place_comment": "",
    "lat": 41.8395934606049,
    "lon": 75.1519719190007,
    "zoom": 9
  },
  {
    "day": 21,
    "theme": "Raster",
    "place": "Genghis Khaan Statue Complex",
    "alt_place": "Ginghis Khaan Statue,Genghis Khan Statue,Ginghis Khan Statue",
    "sub_place": "Mongolia,Mongolie",
    "question": "Name this place.",
    "place_comment": "",
    "lat": 47.808125132594,
    "lon": 107.529844055325,
    "zoom": 15
  },
  {
    "day": 22,
    "theme": "North is not always up",
    "place": "Sierra Leone",
    "alt_place": "",
    "sub_place": "",
    "question": "Name this country.",
    "place_comment": "Sierra Leone is one of the most rounded country",
    "lat": 8.44519282736392,
    "lon": -11.8629610237056,
    "zoom": 7
  },
  {
    "day": 23,
    "theme": "3D",
    "place": "Torres del Paine",
    "alt_place": "",
    "sub_place": "Chile",
    "question": "Name this place.",
    "place_comment": "",
    "lat": -51.0029303875002,
    "lon": -73.0972775304178,
    "zoom": 10
  },
  {
    "day": 24,
    "theme": "Black and White",
    "place": "Monza",
    "alt_place": "",
    "sub_place": "",
    "question": "Name this place.",
    "place_comment": "",
    "lat": 45.6190714828521,
    "lon": 9.2844144011089,
    "zoom": 13
  },
  {
    "day": 25,
    "theme": "Antarctica",
    "place": "Ljubljana",
    "alt_place": "",
    "sub_place": "",
    "question": "Northern cities has been moved to the ice continent.  Name the city which fall to the south pole.",
    "place_comment": "",
    "lat": -84.99,
    "lon": 0,
    "zoom": 3
  },
  {
    "day": 26,
    "theme": "Minimal",
    "place": "Pitcairn",
    "alt_place": "",
    "sub_place": "",
    "question": "Name this island.",
    "place_comment": "Pitcairn is the dependency having the less population.",
    "lat": -25.0692396577367,
    "lon": -130.105773008269,
    "zoom": 13.5
  },
  {
    "day": 27,
    "theme": "Dot",
    "place": "Beaufort",
    "alt_place": "",
    "sub_place": "",
    "question": "Name the sea where 300 bears has been tracked here.",
    "place_comment": "",
    "lat": 71.3597172198159,
    "lon": -154.724482964392,
    "zoom": 4
  },
  {
    "day": 28,
    "theme": "Is it a chart or map?",
    "place": "Japan",
    "alt_place": "Japon",
    "sub_place": "",
    "question": "Name the nation which represents this population chart.",
    "place_comment": "",
    "lat": 35.7996294218927,
    "lon": 140.060331883228,
    "zoom": 4
  },
  {
    "day": 29,
    "theme": "Population",
    "place": "Kosovo",
    "alt_place": "Kosova,Kosovë",
    "sub_place": "",
    "question": "Name the nation which represents this population density.",
    "place_comment": "",
    "lat": 42.5828007575422,
    "lon": 20.7497467666328,
    "zoom": 8
  },
  {
    "day": 30,
    "theme": "My favorite...",
    "place": "Bissau",
    "alt_place": "Guinea-Bissau,Guinée-Bissau,Guinee Bissau",
    "sub_place": "",
    "question": "Name this beautiful place.",
    "place_comment": "",
    "lat": 11.721768706204,
    "lon": -15.66774583044,
    "zoom": 8.5
  }
]